[{"_key":"2023122918535671487660600","address":"2613 W 10th St, Austin, TX, United States","lat":"30.284886","lng":"-97.774528"},{"_key":"2023122918535703997320600","address":"Emerald Tavern Games and Cafe, Research Boulevard, Austin, TX, United States","lat":"30.371085","lng":"-97.724703"},{"_key":"202312291853570710150600","address":"Austin Java, Barton Springs Road, Austin, TX, United States","lat":"30.262408","lng":"-97.761731"},{"_key":"2023122918535713233290600","address":"2505 Side Cove, Austin, TX, United States","lat":"30.251603","lng":"-97.792269"},{"_key":"2023122918535718589040600","address":"Radio Coffee \u0026 Beer, Manchaca Road, Austin, TX, United States","lat":"30.231537","lng":"-97.787776"},{"_key":"2023122918535734125130600","address":"Strange Brew, Manchaca Road, Austin, TX, United States","lat":"30.217928","lng":"-97.796485"},{"_key":"2023122918535737215080600","address":"10202 Talleyran Drive, Austin, TX, United States","lat":"30.425064","lng":"-97.802128"},{"_key":"2023122918535748184280600","address":"Mozart's Coffee Roasters, Lake Austin Boulevard, Austin, TX, United States","lat":"30.295440","lng":"-97.784187"},{"_key":"2023122918535772991820600","address":"Geeky Teas, South Main Street, Burbank, CA, United States","lat":"34.166506","lng":"-118.313467"},{"_key":"20231229185357777150600","address":"Lost Pines, TX, United States","lat":"30.164805","lng":"-97.444450"},{"_key":"2023122918535816455640600","address":"Epoch Coffee, West North Loop Boulevard, Austin, TX, United States","lat":"30.318656","lng":"-97.724455"},{"_key":"2023122918535819498950600","address":"Monkey Nest Coffee, Burnet Road, Austin, TX, United States","lat":"30.327704","lng":"-97.739608"},{"_key":"2023122918535825738330600","address":"GameHäus Café, South Brand Boulevard, Glendale, CA, United States","lat":"34.123341","lng":"-118.254667"},{"_key":"2023122918535830386230600","address":"1731 Spyglass Drive, Austin, TX, United States","lat":"30.257299","lng":"-97.789899"},{"_key":"2023122918535835125540600","address":"1709 Duke Avenue, Austin, TX, United States","lat":"30.351719","lng":"-97.724325"},{"_key":"2023122918535839803010600","address":"7501 Carver Ave, Austin, TX 78752, United States","lat":"30.334099","lng":"-97.696974"},{"_key":"2023122918535874158670600","address":"Henry B. Gonzalez Convention Center, East Market Street, San Antonio, TX, United States","lat":"29.420844","lng":"-98.483937"},{"_key":"202312291853587884950600","address":"Vigilante Gaming Bar, Easy Wind Drive #150, Austin, TX, United States","lat":"30.339564","lng":"-97.718358"},{"_key":"2023122918535886581010600","address":"83 Liberty Common, Rye, NH, United States","lat":"43.025358","lng":"-70.767314"},{"_key":"2023122918535898978790600","address":"Gregorys Coffee, 874 6th Ave, New York, NY 10001","lat":"40.747794","lng":"-73.989078"},{"_key":"2023122918535902169310600","address":"The Uncommons, 230 Thompson St, New York, NY 10012","lat":"40.729421","lng":"-73.998707"},{"_key":"2023122918535909955730600","address":"Buzzmill, 1454-1516 Town Creek Dr, Austin, TX, United States","lat":"30.242564","lng":"-97.726986"},{"_key":"2023122918535930143650600","address":"6112A Tyne st Houston TX 77007, United States","lat":"29.775179","lng":"-95.424241"},{"_key":"20231229185359332510600","address":"Coral Sword, 1318 Telephone Rd suite 3, Houston, TX 77023, United States","lat":"29.731062","lng":"-95.327398"},{"_key":"2023122918535937954140600","address":"5303 Kings Hwy, Austin, TX 78745, United States","lat":"30.222333","lng":"-97.792539"},{"_key":"2023122918535939512780600","address":"Hampton Inn \u0026 Suites Portsmouth Downtown, 23 Portwalk Pl, Portsmouth, NH 03801, United States","lat":"43.078241","lng":"-70.761357"},{"_key":"2023122918535945685560600","address":"Diversions Puzzles \u0026 Games,123 Congress Street, Portsmouth, NH 03801, United States","lat":"43.076465","lng":"-70.760202"},{"_key":"2023122918535948750980600","address":"Tea + Victory, 2030 E T C Jester Blvd, Houston, TX 77008, United States","lat":"29.804505","lng":"-95.426901"},{"_key":"2023122918535965984160600","address":"3009 Royal Palm Dr, Costa Mesa, CA 92626, United States","lat":"33.681502","lng":"-117.921892"},{"_key":"2023122918535973655880600","address":"Franklin Barbecue, 900 E 11th St, Austin, TX 78702, United States","lat":"30.270436","lng":"-97.731241"},{"_key":"2023122918535992428550600","address":"Hyatt Regency Indianapolis, 1 S Capitol Ave, Indianapolis, IN 46204","lat":"39.76631950000001","lng":"-86.16074151349305"},{"_key":"2023122918535995584220600","address":"9020 Hatfield Dr, Indianapolis, IN 46231","lat":"39.679486","lng":"-86.322183"},{"_key":"202312291853599867950600","address":"1053361, Indianapolis, IN 46225","lat":"39.760323","lng":"-86.163931"},{"_key":"2023122918540017467790600","address":"Bennu Coffee on Congress, 515 S Congress Ave, Austin, TX 78704, United States","lat":"30.256104","lng":"-97.746236"},{"_key":"2023122918540020579970600","address":"Stonewall Motel, 14818 US-290, Stonewall, TX 78671, United States","lat":"30.236429","lng":"-98.658325"},{"_key":"2023122918540030554620600","address":"https://tabletopia.com","lat":"","lng":""},{"_key":"2023122918540058419430600","address":"Reiling Rd, Breckenridge, CO 80424, United States","lat":"39.49148148632784","lng":"-106.03565315938522"},{"_key":"2023122918540066259450600","address":"109 Jacob Fontaine Ln suite 600, Austin, TX 78752, United States","lat":"30.32527604220331","lng":"-97.71483107251676"},{"_key":"2023122918540075613630600","address":"15 Holland Ln 2222 New Paltz NY 12561, United States","lat":"41.74207741765583","lng":"-74.07442454422367"},{"_key":"2023122918540081822020600","address":"232 McAllister Rd, Bastrop, TX 78602","lat":"30.083230546149494","lng":"-97.26409024114575"},{"_key":"2023122918540086421770600","address":"Medici Roasting, 1101 W Lynn St, Austin, TX 78703, United States","lat":"30.27957112580372","lng":"-97.7594112423287"},{"_key":"2023122918540108397080600","address":"Board Room, 1737 Connecticut Ave NW, Washington, DC 20009, United States","lat":"38.91378607711581","lng":"-77.04529806333527"},{"_key":"2023122918540111486950600","address":"Cherrywood Coffeehouse, 1400 E 38th 1/2 St, Austin, TX 78722, United States","lat":"30.293766985913614","lng":"-97.71603193073516"},{"_key":"2023122918540113060250600","address":"Bennu Coffee Highland, 109 Jacob Fontaine Ln suite 600, Austin, TX 78752, United States","lat":"30.32508155737077","lng":"-97.7147988888842"},{"_key":"2023122918540114598650600","address":"Hyatt Place Indianapolis / Downtown, 130 S Pennsylvania St, Indianapolis, IN 46204","lat":"39.764751058892756","lng":"-86.156511031633"},{"_key":"2023122918540122251770600","address":"Lucas Stadium, 500 S Capitol Ave, Indianapolis, IN 46225, United States","lat":"39.760211313324724","lng":"-86.16388836904291"},{"_key":"2023122918540128467670600","address":"135 Barton Hills Drive, #125 Austin, TX, United States","lat":"30.255496435217257","lng":"-97.78204158653577"},{"_key":"2023122918540137843910600","address":"Gunks Gaming Guild Cafe, 17 Church St, New Paltz, NY 12561, United States","lat":"41.795489116678134","lng":"-74.08363499074956"},{"_key":"2023122918540140942970600","address":"Marriott South, 4415 S I-35 Frontage Rd, Austin, TX 78744, United States","lat":"30.210892402882994","lng":"-97.75346711537279"},{"_key":"2023122918540142494580600","address":"Hyatt Centric Arlington, Wilson Boulevard, Arlington, VA, United States","lat":"38.89527258109623","lng":"-77.07267831521543"},{"_key":"2023122918540154909770600","address":"Courtyard by Marriott Austin Airport, 7809 E Ben White Blvd, Austin, TX 78741, United States","lat":"30.217617058854632","lng":"-97.68742586677496"},{"_key":"2023122918540159650820600","address":"Captain Quackenbush's Coffeehouse, 5326 Manchaca Road, Austin, TX, United States","lat":"30.217928","lng":"-97.796485"},{"_key":"2023122918540164340610600","address":"Hall C, Indiana Convention Center, 100 S Capitol Ave, Indianapolis, IN 46225, United States","lat":"39.760211313324724","lng":"-86.16388836904291"},{"_key":"2023122918540172133680600","address":"TownePlace Suites, 629 Russell Ave, Indianapolis, IN 46225, United States","lat":"39.75804775218753","lng":"-86.15963817309377"},{"_key":"2023122918540173466990600","address":"Indianapolis International Airport, 7800 Col. H. Weir Cook Memorial Dr, Indianapolis, IN 46241, United States","lat":"39.720465852313545","lng":"-86.29364705582178"},{"_key":"2023122918540184276260600","address":"Holiday Inn Arlington at Ballston, 4610 Fairfax Dr, Arlington, VA 22203 United States","lat":"38.89527258109623","lng":"-77.07267831521543"},{"_key":"2023122918540185747030600","address":"50 Bowery, New York, NY 10013, United States","lat":"40.71583267215193","lng":"-73.99661864236352"},{"_key":"2023122918540196655310600","address":"8312 Stillwood Ln, Austin, TX 78757,  United States","lat":"30.371085","lng":"-97.724703"}]