[{"_key":"2024031013545470768450500","address":"2613 W 10th St, Austin, TX, United States","lat":"30.284886","lng":"-97.774528"},{"_key":"2024031013545505457870500","address":"Emerald Tavern Games and Cafe, Research Boulevard, Austin, TX, United States","lat":"30.371085","lng":"-97.724703"},{"_key":"2024031013545507002870500","address":"Austin Java, Barton Springs Road, Austin, TX, United States","lat":"30.262408","lng":"-97.761731"},{"_key":"2024031013545512420960500","address":"2505 Side Cove, Austin, TX, United States","lat":"30.251603","lng":"-97.792269"},{"_key":"2024031013545518379230500","address":"Radio Coffee \u0026 Beer, Manchaca Road, Austin, TX, United States","lat":"30.231537","lng":"-97.787776"},{"_key":"2024031013545533087830500","address":"Strange Brew, Manchaca Road, Austin, TX, United States","lat":"30.217928","lng":"-97.796485"},{"_key":"2024031013545536149160500","address":"10202 Talleyran Drive, Austin, TX, United States","lat":"30.425064","lng":"-97.802128"},{"_key":"2024031013545545455870500","address":"Mozart's Coffee Roasters, Lake Austin Boulevard, Austin, TX, United States","lat":"30.295440","lng":"-97.784187"},{"_key":"2024031013545560618190500","address":"Geeky Teas, South Main Street, Burbank, CA, United States","lat":"34.166506","lng":"-118.313467"},{"_key":"2024031013545565321920500","address":"Lost Pines, TX, United States","lat":"30.164805","lng":"-97.444450"},{"_key":"2024031013545597862530500","address":"Epoch Coffee, West North Loop Boulevard, Austin, TX, United States","lat":"30.318656","lng":"-97.724455"},{"_key":"2024031013545600949110500","address":"Monkey Nest Coffee, Burnet Road, Austin, TX, United States","lat":"30.327704","lng":"-97.739608"},{"_key":"202403101354560565230500","address":"GameHäus Café, South Brand Boulevard, Glendale, CA, United States","lat":"34.123341","lng":"-118.254667"},{"_key":"2024031013545610342780500","address":"1731 Spyglass Drive, Austin, TX, United States","lat":"30.257299","lng":"-97.789899"},{"_key":"2024031013545613375810500","address":"1709 Duke Avenue, Austin, TX, United States","lat":"30.351719","lng":"-97.724325"},{"_key":"2024031013545617126010500","address":"7501 Carver Ave, Austin, TX 78752, United States","lat":"30.334099","lng":"-97.696974"},{"_key":"2024031013545644334070500","address":"Henry B. Gonzalez Convention Center, East Market Street, San Antonio, TX, United States","lat":"29.420844","lng":"-98.483937"},{"_key":"2024031013545645956730500","address":"Vigilante Gaming Bar, Easy Wind Drive #150, Austin, TX, United States","lat":"30.339564","lng":"-97.718358"},{"_key":"2024031013545653721690500","address":"83 Liberty Common, Rye, NH, United States","lat":"43.025358","lng":"-70.767314"},{"_key":"2024031013545658478370500","address":"Gregorys Coffee, 874 6th Ave, New York, NY 10001","lat":"40.747794","lng":"-73.989078"},{"_key":"2024031013545661657270500","address":"The Uncommons, 230 Thompson St, New York, NY 10012","lat":"40.729421","lng":"-73.998707"},{"_key":"2024031013545669398680500","address":"Buzzmill, 1454-1516 Town Creek Dr, Austin, TX, United States","lat":"30.242564","lng":"-97.726986"},{"_key":"2024031013545690087750500","address":"6112A Tyne st Houston TX 77007, United States","lat":"29.775179","lng":"-95.424241"},{"_key":"2024031013545692928470500","address":"Coral Sword, 1318 Telephone Rd suite 3, Houston, TX 77023, United States","lat":"29.731062","lng":"-95.327398"},{"_key":"2024031013545697573350500","address":"5303 Kings Hwy, Austin, TX 78745, United States","lat":"30.222333","lng":"-97.792539"},{"_key":"2024031013545697614660500","address":"Hampton Inn \u0026 Suites Portsmouth Downtown, 23 Portwalk Pl, Portsmouth, NH 03801, United States","lat":"43.078241","lng":"-70.761357"},{"_key":"2024031013545702279910500","address":"Diversions Puzzles \u0026 Games,123 Congress Street, Portsmouth, NH 03801, United States","lat":"43.076465","lng":"-70.760202"},{"_key":"2024031013545705705240500","address":"Tea + Victory, 2030 E T C Jester Blvd, Houston, TX 77008, United States","lat":"29.804505","lng":"-95.426901"},{"_key":"2024031013545713148730500","address":"3009 Royal Palm Dr, Costa Mesa, CA 92626, United States","lat":"33.681502","lng":"-117.921892"},{"_key":"2024031013545719312450500","address":"Franklin Barbecue, 900 E 11th St, Austin, TX 78702, United States","lat":"30.270436","lng":"-97.731241"},{"_key":"202403101354573488150500","address":"Hyatt Regency Indianapolis, 1 S Capitol Ave, Indianapolis, IN 46204","lat":"39.76631950000001","lng":"-86.16074151349305"},{"_key":"2024031013545737984190500","address":"9020 Hatfield Dr, Indianapolis, IN 46231","lat":"39.679486","lng":"-86.322183"},{"_key":"2024031013545741085960500","address":"1053361, Indianapolis, IN 46225","lat":"39.760323","lng":"-86.163931"},{"_key":"2024031013545756825090500","address":"Bennu Coffee on Congress, 515 S Congress Ave, Austin, TX 78704, United States","lat":"30.256104","lng":"-97.746236"},{"_key":"2024031013545759822140500","address":"Stonewall Motel, 14818 US-290, Stonewall, TX 78671, United States","lat":"30.236429","lng":"-98.658325"},{"_key":"2024031013545769062180500","address":"https://tabletopia.com","lat":"","lng":""},{"_key":"2024031013545793838280500","address":"Reiling Rd, Breckenridge, CO 80424, United States","lat":"39.49148148632784","lng":"-106.03565315938522"},{"_key":"2024031013545801569230500","address":"109 Jacob Fontaine Ln suite 600, Austin, TX 78752, United States","lat":"30.32527604220331","lng":"-97.71483107251676"},{"_key":"2024031013545806123920500","address":"15 Holland Ln 2222 New Paltz NY 12561, United States","lat":"41.74207741765583","lng":"-74.07442454422367"},{"_key":"2024031013545810715450500","address":"232 McAllister Rd, Bastrop, TX 78602","lat":"30.083230546149494","lng":"-97.26409024114575"},{"_key":"202403101354581390610500","address":"Medici Roasting, 1101 W Lynn St, Austin, TX 78703, United States","lat":"30.27957112580372","lng":"-97.7594112423287"},{"_key":"2024031013545830805990500","address":"Board Room, 1737 Connecticut Ave NW, Washington, DC 20009, United States","lat":"38.91378607711581","lng":"-77.04529806333527"},{"_key":"2024031013545833741460500","address":"Cherrywood Coffeehouse, 1400 E 38th 1/2 St, Austin, TX 78722, United States","lat":"30.293766985913614","lng":"-97.71603193073516"},{"_key":"2024031013545835270170500","address":"Bennu Coffee Highland, 109 Jacob Fontaine Ln suite 600, Austin, TX 78752, United States","lat":"30.32508155737077","lng":"-97.7147988888842"},{"_key":"2024031013545836858670500","address":"Hyatt Place Indianapolis / Downtown, 130 S Pennsylvania St, Indianapolis, IN 46204","lat":"39.764751058892756","lng":"-86.156511031633"},{"_key":"2024031013545845665320500","address":"Lucas Stadium, 500 S Capitol Ave, Indianapolis, IN 46225, United States","lat":"39.760211313324724","lng":"-86.16388836904291"},{"_key":"2024031013545850362840500","address":"135 Barton Hills Drive, #125 Austin, TX, United States","lat":"30.255496435217257","lng":"-97.78204158653577"},{"_key":"2024031013545857160260500","address":"Gunks Gaming Guild Cafe, 17 Church St, New Paltz, NY 12561, United States","lat":"41.795489116678134","lng":"-74.08363499074956"},{"_key":"2024031013545858595240500","address":"Marriott South, 4415 S I-35 Frontage Rd, Austin, TX 78744, United States","lat":"30.210892402882994","lng":"-97.75346711537279"},{"_key":"2024031013545860137390500","address":"Hyatt Centric Arlington, Wilson Boulevard, Arlington, VA, United States","lat":"38.89527258109623","lng":"-77.07267831521543"},{"_key":"2024031013545867984990500","address":"Courtyard by Marriott Austin Airport, 7809 E Ben White Blvd, Austin, TX 78741, United States","lat":"30.217617058854632","lng":"-97.68742586677496"},{"_key":"2024031013545872488150500","address":"Captain Quackenbush's Coffeehouse, 5326 Manchaca Road, Austin, TX, United States","lat":"30.217928","lng":"-97.796485"},{"_key":"2024031013545877093620500","address":"Hall C, Indiana Convention Center, 100 S Capitol Ave, Indianapolis, IN 46225, United States","lat":"39.760211313324724","lng":"-86.16388836904291"},{"_key":"2024031013545884995640500","address":"TownePlace Suites, 629 Russell Ave, Indianapolis, IN 46225, United States","lat":"39.75804775218753","lng":"-86.15963817309377"},{"_key":"2024031013545886595890500","address":"Indianapolis International Airport, 7800 Col. H. Weir Cook Memorial Dr, Indianapolis, IN 46241, United States","lat":"39.720465852313545","lng":"-86.29364705582178"},{"_key":"2024031013545895842740500","address":"Holiday Inn Arlington at Ballston, 4610 Fairfax Dr, Arlington, VA 22203 United States","lat":"38.89527258109623","lng":"-77.07267831521543"},{"_key":"2024031013545897416690500","address":"50 Bowery, New York, NY 10013, United States","lat":"40.71583267215193","lng":"-73.99661864236352"},{"_key":"2024031013545905596190500","address":"8312 Stillwood Ln, Austin, TX 78757,  United States","lat":"30.371085","lng":"-97.724703"}]