[{"_key":"2023122708455087676220600","address":"2613 W 10th St, Austin, TX, United States","lat":"30.284886","lng":"-97.774528"},{"_key":"2023122708455120468680600","address":"Emerald Tavern Games and Cafe, Research Boulevard, Austin, TX, United States","lat":"30.371085","lng":"-97.724703"},{"_key":"2023122708455123622950600","address":"Austin Java, Barton Springs Road, Austin, TX, United States","lat":"30.262408","lng":"-97.761731"},{"_key":"2023122708455129901080600","address":"2505 Side Cove, Austin, TX, United States","lat":"30.251603","lng":"-97.792269"},{"_key":"2023122708455136111830600","address":"Radio Coffee \u0026 Beer, Manchaca Road, Austin, TX, United States","lat":"30.231537","lng":"-97.787776"},{"_key":"2023122708455151438020600","address":"Strange Brew, Manchaca Road, Austin, TX, United States","lat":"30.217928","lng":"-97.796485"},{"_key":"2023122708455154888290600","address":"10202 Talleyran Drive, Austin, TX, United States","lat":"30.425064","lng":"-97.802128"},{"_key":"2023122708455165780460600","address":"Mozart's Coffee Roasters, Lake Austin Boulevard, Austin, TX, United States","lat":"30.295440","lng":"-97.784187"},{"_key":"2023122708455190587370600","address":"Geeky Teas, South Main Street, Burbank, CA, United States","lat":"34.166506","lng":"-118.313467"},{"_key":"202312270845519537530600","address":"Lost Pines, TX, United States","lat":"30.164805","lng":"-97.444450"},{"_key":"2023122708455234221750600","address":"Epoch Coffee, West North Loop Boulevard, Austin, TX, United States","lat":"30.318656","lng":"-97.724455"},{"_key":"2023122708455237385190600","address":"Monkey Nest Coffee, Burnet Road, Austin, TX, United States","lat":"30.327704","lng":"-97.739608"},{"_key":"2023122708455243652990600","address":"GameHäus Café, South Brand Boulevard, Glendale, CA, United States","lat":"34.123341","lng":"-118.254667"},{"_key":"2023122708455248234250600","address":"1731 Spyglass Drive, Austin, TX, United States","lat":"30.257299","lng":"-97.789899"},{"_key":"2023122708455252819830600","address":"1709 Duke Avenue, Austin, TX, United States","lat":"30.351719","lng":"-97.724325"},{"_key":"2023122708455254535370600","address":"7501 Carver Ave, Austin, TX 78752, United States","lat":"30.334099","lng":"-97.696974"},{"_key":"2023122708455288761070600","address":"Henry B. Gonzalez Convention Center, East Market Street, San Antonio, TX, United States","lat":"29.420844","lng":"-98.483937"},{"_key":"2023122708455293523620600","address":"Vigilante Gaming Bar, Easy Wind Drive #150, Austin, TX, United States","lat":"30.339564","lng":"-97.718358"},{"_key":"2023122708455301226710600","address":"83 Liberty Common, Rye, NH, United States","lat":"43.025358","lng":"-70.767314"},{"_key":"2023122708455313789770600","address":"Gregorys Coffee, 874 6th Ave, New York, NY 10001","lat":"40.747794","lng":"-73.989078"},{"_key":"2023122708455317006190600","address":"The Uncommons, 230 Thompson St, New York, NY 10012","lat":"40.729421","lng":"-73.998707"},{"_key":"2023122708455324720910600","address":"Buzzmill, 1454-1516 Town Creek Dr, Austin, TX, United States","lat":"30.242564","lng":"-97.726986"},{"_key":"2023122708455346659580600","address":"6112A Tyne st Houston TX 77007, United States","lat":"29.775179","lng":"-95.424241"},{"_key":"2023122708455349753670600","address":"Coral Sword, 1318 Telephone Rd suite 3, Houston, TX 77023, United States","lat":"29.731062","lng":"-95.327398"},{"_key":"2023122708455354434810600","address":"5303 Kings Hwy, Austin, TX 78745, United States","lat":"30.222333","lng":"-97.792539"},{"_key":"2023122708455355931380600","address":"Hampton Inn \u0026 Suites Portsmouth Downtown, 23 Portwalk Pl, Portsmouth, NH 03801, United States","lat":"43.078241","lng":"-70.761357"},{"_key":"2023122708455360752790600","address":"Diversions Puzzles \u0026 Games,123 Congress Street, Portsmouth, NH 03801, United States","lat":"43.076465","lng":"-70.760202"},{"_key":"202312270845536379510600","address":"Tea + Victory, 2030 E T C Jester Blvd, Houston, TX 77008, United States","lat":"29.804505","lng":"-95.426901"},{"_key":"2023122708455381093990600","address":"3009 Royal Palm Dr, Costa Mesa, CA 92626, United States","lat":"33.681502","lng":"-117.921892"},{"_key":"2023122708455387360820600","address":"Franklin Barbecue, 900 E 11th St, Austin, TX 78702, United States","lat":"30.270436","lng":"-97.731241"},{"_key":"2023122708455404432260600","address":"1 S Capitol Ave, Indianapolis, IN 46204","lat":"39.766540","lng":"-86.160976"},{"_key":"2023122708455407427520600","address":"9020 Hatfield Dr, Indianapolis, IN 46231","lat":"39.679486","lng":"-86.322183"},{"_key":"2023122708455410562270600","address":"1053361, Indianapolis, IN 46225","lat":"39.760323","lng":"-86.163931"},{"_key":"2023122708455429430810600","address":"Bennu Coffee on Congress, 515 S Congress Ave, Austin, TX 78704, United States","lat":"30.256104","lng":"-97.746236"},{"_key":"2023122708455432555690600","address":"Stonewall Motel, 14818 US-290, Stonewall, TX 78671, United States","lat":"30.236429","lng":"-98.658325"},{"_key":"2023122708455443680510600","address":"https://tabletopia.com","lat":"","lng":""}]